City,Cloudiness,Country,Date,Humidity,Lat,Lng,Max Temp,Wind Speed
port hawkesbury,90,CA,1551098820,87,45.62,-61.36,32.0,10.29
beni suef,0,EG,1551099824,38,29.07,31.1,77.85,11.21
kodiak,1,US,1551098100,50,39.95,-94.76,8.6,9.17
dong hoi,80,VN,1551099825,100,17.48,106.6,72.54,7.74
huilong,44,CN,1551099825,77,28.89,110.18,43.2,4.27
kapaa,75,US,1551099180,77,22.08,-159.32,69.8,9.17
rikitea,92,PF,1551099825,100,-23.12,-134.97,79.02,10.42
nizhniy kuranakh,8,RU,1551099826,70,58.84,125.49,5.13,3.38
bredasdorp,0,ZA,1551096000,48,-34.53,20.04,82.4,11.41
mount isa,90,AU,1551097800,100,-20.73,139.49,69.8,4.7
sinnamary,88,GF,1551099826,93,5.38,-52.96,79.65,12.1
kruisfontein,0,ZA,1551099827,70,-34.0,24.73,72.27,7.74
yulara,0,AU,1551096000,11,-25.24,130.99,89.6,6.93
kahramanmaras,20,TR,1551095400,38,37.58,36.93,60.8,3.36
vila franca do campo,40,PT,1551097800,62,37.72,-25.43,59.0,16.11
port hardy,5,CA,1551096000,94,50.7,-127.42,32.0,11.41
mataura,92,NZ,1551099828,84,-46.19,168.86,46.39,2.71
upernavik,80,GL,1551099828,100,72.79,-56.15,-0.1,21.27
ushuaia,40,AR,1551096000,52,-54.81,-68.31,41.0,6.93
dubbo,0,AU,1551097800,46,-32.25,148.6,71.6,14.99
lucea,20,JM,1551096000,78,18.44,-78.17,75.2,13.78
rawson,36,AR,1551099829,39,-43.3,-65.11,46.66,13.89
bluff,64,AU,1551099830,43,-23.58,149.07,78.75,10.76
carnarvon,0,ZA,1551099830,11,-30.97,22.13,86.94,11.65
butaritari,92,KI,1551099830,99,3.07,172.79,84.19,18.03
punta arenas,40,CL,1551096000,100,-53.16,-70.91,44.6,5.82
norman wells,40,CA,1551096000,83,65.28,-126.83,-4.01,3.36
albany,75,US,1551097140,49,42.65,-73.75,35.6,19.46
bethlehem,20,US,1551098160,40,40.62,-75.38,37.4,14.99
talnakh,68,RU,1551099832,75,69.49,88.39,-2.8,8.19
torbay,75,CA,1551096000,72,47.66,-52.73,17.6,16.11
ulaangom,36,MN,1551099833,95,49.98,92.07,2.7,1.92
ayan,0,TR,1551099833,72,40.67,33.6,41.85,1.7
vila velha,75,BR,1551099600,70,-3.71,-38.6,86.0,6.93
halalo,75,BR,1551099600,70,-3.71,-38.6,86.0,6.93
kaitangata,88,NZ,1551099834,67,-46.28,169.85,47.29,4.38
puerto ayora,20,EC,1551096000,83,-0.74,-90.35,78.8,3.36
dunedin,56,NZ,1551099596,82,-45.87,170.5,41.26,2.93
kamenka,88,RU,1551099835,94,53.19,44.05,27.27,9.98
cidreira,76,BR,1551099835,97,-30.17,-50.22,69.16,11.77
jamestown,24,AU,1551099835,34,-33.21,138.6,76.14,9.98
vardo,1,US,1551098400,20,39.62,-77.74,37.4,18.34
sainte-luce,0,FR,1551099836,34,44.85,5.91,50.44,1.25
mahebourg,40,MU,1551096000,66,-20.41,57.7,87.8,10.29
hermanus,20,ZA,1551099823,40,-34.42,19.24,84.15,3.94
east london,20,ZA,1551096000,69,-33.02,27.91,78.8,16.11
hilo,90,US,1551099180,77,19.71,-155.08,64.4,5.82
salvador,40,BR,1551099600,59,-12.98,-38.48,89.6,12.75
port lincoln,0,AU,1551099837,77,-34.72,135.86,71.1,10.2
airai,48,TL,1551099837,86,-8.93,125.41,73.08,1.36
busselton,44,AU,1551099838,74,-33.64,115.35,79.06,7.07
port alfred,0,ZA,1551099838,80,-33.59,26.89,76.05,7.63
castro,0,CL,1551096000,81,-42.48,-73.76,48.2,13.87
kavieng,68,PG,1551099839,100,-2.57,150.8,82.03,9.98
cortez,1,US,1551095580,71,37.35,-108.58,6.8,2.59
coruripe,48,BR,1551099839,94,-10.12,-36.18,82.98,7.74
hobart,75,AU,1551097800,88,-42.88,147.33,62.6,13.87
illoqqortoormiut,75,AU,1551097800,88,-42.88,147.33,62.6,13.87
yellowknife,20,CA,1551096000,74,62.45,-114.38,-22.01,8.05
giyon,36,ET,1551099840,66,8.53,37.98,76.05,3.38
atuona,80,PF,1551099841,100,-9.8,-139.03,81.31,3.71
nikolskoye,90,RU,1551097800,69,59.7,30.79,39.2,20.13
grande prairie,5,CA,1551096000,74,55.17,-118.79,-27.41,2.82
chokurdakh,12,RU,1551099841,5,70.62,147.9,-28.27,10.76
jalu,0,LY,1551099842,40,29.03,21.55,63.0,14.0
linchuan,0,LY,1551099842,40,29.03,21.55,63.0,14.0
kidal,0,ML,1551099593,22,18.44,1.41,80.73,7.96
sekoma,0,BW,1551099842,25,-24.51,23.93,96.43,4.72
cherskiy,68,RU,1551099843,70,68.75,161.3,-18.82,4.38
kamenskoye,68,RU,1551099843,70,68.75,161.3,-18.82,4.38
bathsheba,75,BB,1551096000,73,13.22,-59.52,77.0,28.86
faanui,64,PF,1551099843,96,-16.48,-151.75,84.01,5.17
taolanaro,64,PF,1551099843,96,-16.48,-151.75,84.01,5.17
maine-soroa,0,NE,1551099844,22,13.21,12.02,92.38,10.09
souillac,0,FR,1551097800,55,45.6,-0.6,62.6,4.7
samusu,0,FR,1551097800,55,45.6,-0.6,62.6,4.7
ierapetra,90,GR,1551097200,87,35.01,25.74,55.4,5.82
grootfontein,40,NA,1551096000,29,-19.56,18.1,91.4,4.7
cabo san lucas,40,MX,1551097440,76,22.89,-109.91,57.2,6.93
najran,0,SA,1551096000,28,17.54,44.22,86.0,5.82
labuan,75,BN,1551097800,83,5.28,115.24,80.6,9.17
hobbs,1,US,1551098100,63,32.7,-103.14,30.2,12.33
mehamn,75,NO,1551095400,74,71.03,27.85,30.2,19.46
smirnykh,0,RU,1551099846,58,49.74,142.83,-7.66,3.94
kahului,20,US,1551097440,77,20.89,-156.47,62.6,4.38
gelemso,48,ET,1551099846,33,8.81,40.52,80.46,4.61
chlorakas,48,ET,1551099846,33,8.81,40.52,80.46,4.61
longyearbyen,20,NO,1551099000,69,78.22,15.63,-7.61,4.7
bridlington,75,GB,1551098760,100,54.08,-0.19,59.0,5.82
saint-felix-de-valois,90,CA,1551098280,86,46.17,-73.43,28.4,18.34
port elizabeth,1,US,1551095760,37,39.31,-74.98,39.2,13.87
yakeshi,0,CN,1551099803,70,49.28,120.73,7.78,4.61
louis trichardt,24,ZA,1551099848,64,-23.04,29.91,84.46,3.94
havelock,1,US,1551097800,33,34.88,-76.9,48.2,11.41
bargal,1,US,1551097800,33,34.88,-76.9,48.2,11.41
tamugan,40,PH,1551096000,78,7.23,125.38,80.6,4.7
pizarro,76,CO,1551099850,95,4.95,-77.37,76.99,2.93
nanae,8,JP,1551099851,81,41.94,140.7,27.76,4.94
garden city,75,US,1551099060,34,40.73,-73.63,37.4,29.97
new norfolk,75,AU,1551097800,88,-42.78,147.06,62.6,13.87
belushya guba,75,AU,1551097800,88,-42.78,147.06,62.6,13.87
tual,20,ID,1551099855,93,-5.67,132.75,86.44,6.17
bethel,90,US,1551099180,89,60.79,-161.76,35.6,9.17
evensk,0,RU,1551099856,100,61.92,159.24,-7.16,14.67
yanan,0,RU,1551099856,100,61.92,159.24,-7.16,14.67
karaul,0,RU,1551099856,100,61.92,159.24,-7.16,14.67
flin flon,75,CA,1551096000,75,54.77,-101.88,-20.21,5.82
iqaluit,20,CA,1551096000,74,63.75,-68.52,-22.01,4.27
sembakung,20,ID,1551096000,74,3.82,117.25,82.4,3.36
mar del plata,0,AR,1551099797,71,-46.43,-67.52,46.89,9.53
provideniya,12,RU,1551099858,90,64.42,-173.23,23.31,18.59
benicarlo,0,ES,1551099859,97,40.42,0.43,56.52,7.18
rioblanco,36,CO,1551099859,88,3.53,-75.64,58.81,1.81
palivere,0,EE,1551095400,81,58.97,23.89,44.6,16.11
barrow,24,AR,1551099860,87,-38.31,-60.23,53.14,17.02
cape town,56,ZA,1551099750,79,-33.93,18.42,70.83,8.08
qaqortoq,75,GL,1551095400,43,60.72,-46.03,35.6,6.93
dikson,68,RU,1551099861,96,73.51,80.55,1.98,24.85
tiksi,64,RU,1551099861,64,71.64,128.87,-3.79,19.04
orsha,0,BY,1551096000,60,54.51,30.43,39.2,20.13
saint-philippe,90,CA,1551098580,68,45.36,-73.48,30.2,32.21
yatou,75,CM,1551096000,66,3.63,9.81,89.6,3.36
ambon,0,FR,1551097800,53,47.55,-2.56,60.8,5.82
walvis bay,20,NA,1551096000,65,-22.95,14.51,77.0,13.87
sao felix do xingu,64,BR,1551099649,96,-6.64,-51.99,75.96,2.71
lavrentiya,12,RU,1551099863,78,65.58,-170.99,16.2,13.11
nguiu,12,RU,1551099863,78,65.58,-170.99,16.2,13.11
zhuhai,75,CN,1551096000,80,40.71,112.04,33.8,6.71
ilulissat,75,GL,1551095400,85,69.22,-51.1,10.4,11.41
arraial do cabo,0,BR,1551099600,62,-22.97,-42.02,89.6,9.17
gimli,0,CA,1551099741,5,50.63,-96.99,-26.65,4.38
avarua,88,CK,1551097800,94,-21.21,-159.78,69.8,2.24
ribeira grande,40,PT,1551097800,67,38.52,-28.7,59.0,25.28
yenagoa,80,NG,1551099865,96,4.92,6.26,80.59,5.73
mys shmidta,80,NG,1551099865,96,4.92,6.26,80.59,5.73
chahuites,0,MX,1551099865,67,16.29,-94.19,78.39,15.46
vaini,40,IN,1551096000,35,15.34,74.49,89.6,6.93
saskylakh,20,RU,1551099866,51,71.97,114.09,-12.97,9.19
kibala,0,TD,1551096000,57,9.11,18.35,78.8,9.17
tuktoyaktuk,24,CA,1551099867,80,69.44,-133.03,13.77,15.01
ewa beach,20,US,1551099180,88,21.32,-158.01,68.0,3.36
grand river south east,20,US,1551099180,88,21.32,-158.01,68.0,3.36
luanda,40,AO,1551096000,70,-8.83,13.24,87.8,11.41
khatanga,64,RU,1551099868,34,71.98,102.47,-17.96,5.5
honningsvag,75,NO,1551095400,74,70.98,25.97,28.4,19.46
nome,90,US,1551098100,65,30.04,-94.42,50.0,6.93
samarai,0,PG,1551099869,98,-10.62,150.67,82.44,10.76
luwuk,76,ID,1551099869,100,-0.95,122.79,78.21,2.93
alice springs,80,AU,1551097800,19,-23.7,133.88,86.0,5.82
koson,0,UZ,1551097800,37,39.04,65.59,55.4,4.7
pangnirtung,5,CA,1551096000,67,66.15,-65.72,-22.01,6.93
fort saint john,5,CA,1551096000,67,66.15,-65.72,-22.01,6.93
tasiilaq,88,GL,1551095400,87,65.61,-37.64,32.0,19.46
palmer,0,AU,1551097800,21,-34.85,139.16,84.2,11.41
marzuq,0,YE,1551099871,10,14.4,46.47,87.39,5.39
asyut,0,EG,1551096000,12,27.18,31.19,87.8,17.22
codrington,40,AU,1551096000,88,-28.95,153.24,68.0,4.5
nabire,68,ID,1551099872,97,-3.36,135.5,69.03,1.81
vaitupu,68,ID,1551099872,97,-3.36,135.5,69.03,1.81
muna,0,FR,1551097800,58,42.14,8.85,64.4,10.29
acajutla,0,SV,1551099872,70,13.59,-89.83,74.34,5.06
georgetown,20,GY,1551096000,83,6.8,-58.16,75.2,2.24
tsihombe,20,GY,1551096000,83,6.8,-58.16,75.2,2.24
okha,0,RU,1551099874,76,53.59,142.95,-7.03,7.29
poum,40,MK,1551097800,29,41.28,20.71,37.4,8.05
san cristobal,75,EC,1551096000,87,-0.39,-78.55,53.6,3.36
varnavino,88,RU,1551099875,86,61.19,46.56,29.29,10.2
medina,0,SA,1551096000,12,24.47,39.61,84.2,13.87
ler,90,NO,1551099000,81,63.2,10.3,44.6,3.36
marawi,0,PH,1551099875,70,8.0,124.29,68.58,2.82
utiroa,0,PH,1551099875,70,8.0,124.29,68.58,2.82
tokur,0,RU,1551099876,61,53.13,132.9,-4.15,0.58
tateyama,75,JP,1551096000,70,36.66,137.31,48.2,9.17
saint george,90,GR,1551097200,69,39.45,22.34,37.4,11.41
presidencia roque saenz pena,92,AR,1551099880,100,-26.79,-60.44,72.54,7.29
mardin,40,TR,1551096000,36,37.32,40.72,62.6,5.82
ancud,0,CL,1551096000,81,-41.87,-73.83,48.2,13.87
dutlwe,12,BW,1551099881,24,-23.98,23.93,97.24,4.38
opuwo,0,NA,1551099881,18,-18.06,13.84,96.79,8.75
tselinnoye,48,UA,1551099881,83,45.9,34.18,35.01,17.13
hanting,0,CN,1551099882,73,30.92,118.55,41.85,7.4
buenavista,75,CO,1551096000,93,4.36,-75.74,69.8,1.59
omuta,0,JP,1551097800,70,33.03,130.45,48.2,2.24
portland,90,US,1551095580,74,45.52,-122.67,37.4,19.46
igede,0,NG,1551099883,35,10.05,5.94,96.43,5.61
champerico,90,MX,1551096840,78,16.38,-93.6,71.6,14.99
gayny,64,RU,1551099884,85,60.3,54.33,25.2,8.19
erzin,0,TR,1551097200,32,36.95,36.2,68.0,2.24
bur gabo,0,TR,1551097200,32,36.95,36.2,68.0,2.24
shar,68,NG,1551099884,93,7.3,8.73,79.02,4.61
arnprior,90,CA,1551098340,73,45.44,-76.36,26.6,28.86
beloha,24,MG,1551099885,71,-25.17,45.06,87.39,9.31
marcona,24,MG,1551099885,71,-25.17,45.06,87.39,9.31
chuy,0,UY,1551099886,93,-33.69,-53.46,67.68,12.44
varadero,0,UY,1551099886,93,-33.69,-53.46,67.68,12.44
salalah,0,OM,1551095400,69,17.01,54.1,82.4,9.17
vanatori,24,RO,1551099886,64,45.73,27.25,41.85,4.16
tabiauea,24,RO,1551099886,64,45.73,27.25,41.85,4.16
bafata,0,GW,1551099887,21,12.17,-14.67,89.37,14.23
odweyne,0,GW,1551099887,21,12.17,-14.67,89.37,14.23
te anau,64,NZ,1551099888,83,-45.41,167.72,41.67,2.37
olafsvik,64,NZ,1551099888,83,-45.41,167.72,41.67,2.37
sulangan,44,PH,1551099888,96,11.14,123.72,80.86,11.21
mount gambier,32,AU,1551096000,55,-37.83,140.78,64.4,6.93
tobane,20,BW,1551096000,44,-21.91,28.04,93.2,3.27
srandakan,92,ID,1551099889,99,-7.94,110.25,75.91,3.15
lebu,0,ET,1551099889,27,8.96,38.73,77.08,11.65
amderma,0,ET,1551099889,27,8.96,38.73,77.08,11.65
grindavik,90,IS,1551097800,93,63.84,-22.43,44.6,32.21
svetlyy,90,IS,1551097800,93,63.84,-22.43,44.6,32.21
caconda,36,AO,1551099890,55,-13.73,15.06,80.46,2.59
santa maria del monte,0,IT,1551097200,32,43.9,12.68,55.4,11.41
yelovo,68,RU,1551099891,82,57.05,54.92,18.09,8.41
sola,75,NO,1551099000,93,58.89,5.65,46.4,6.93
saint-augustin,0,FR,1551097800,51,44.83,-0.61,62.6,3.36
aksu,0,KZ,1551097800,78,52.04,76.93,15.8,8.95
richards bay,32,ZA,1551099892,79,-28.77,32.06,81.58,6.06
comodoro rivadavia,20,AR,1551096000,43,-45.87,-67.48,51.8,9.17
kenora,1,CA,1551098100,74,49.76,-94.48,-20.21,8.05
san quintin,0,PH,1551099893,82,17.54,120.52,69.21,2.26
tilichiki,48,RU,1551099893,60,60.47,166.1,-8.65,4.72
saint anthony,90,US,1551098580,86,43.97,-111.68,33.8,20.8
strathpeffer,0,GB,1551097200,81,57.59,-4.54,53.6,3.27
bayji,0,IQ,1551099894,38,34.93,43.49,70.29,8.08
tiznit,0,MA,1551099895,43,29.7,-9.73,74.25,2.71
pasighat,92,IN,1551099895,94,28.06,95.33,52.92,1.48
karla,0,EE,1551099000,60,59.37,24.93,42.8,13.87
saint-francois,0,FR,1551097800,47,46.42,3.91,57.2,5.82
dakar,0,SN,1551097800,7,14.69,-17.45,86.0,17.22
moerai,92,PF,1551099896,100,-22.43,-151.33,75.51,11.65
bobonong,92,PF,1551099896,100,-22.43,-151.33,75.51,11.65
namibe,20,AO,1551096000,55,-15.19,12.15,87.8,14.99
nanortalik,12,GL,1551099897,98,60.14,-45.24,35.28,14.34
palabuhanratu,12,GL,1551099897,98,60.14,-45.24,35.28,14.34
amboise,0,FR,1551097800,47,47.41,0.98,60.8,10.29
broken hill,80,AU,1551096000,20,-31.97,141.45,82.4,5.82
vila,0,IT,1551097200,35,45.18,8.4,55.4,4.7
nizhneyansk,0,IT,1551097200,35,45.18,8.4,55.4,4.7
hazorasp,0,UZ,1551097800,70,41.32,61.08,46.4,13.87
esperance,75,TT,1551096000,94,10.24,-61.45,73.4,9.17
noumea,90,NC,1551097800,94,-22.28,166.46,73.4,13.87
sitka,36,US,1551099899,65,37.17,-99.65,30.87,13.22
maceio,75,BR,1551099600,62,-9.67,-35.74,86.0,3.36
hasaki,75,JP,1551097800,81,35.73,140.83,53.6,10.29
cagayan de tawi-tawi,75,JP,1551097800,81,35.73,140.83,53.6,10.29
itarema,88,BR,1551099900,99,-2.92,-39.92,79.38,4.83
graulhet,0,FR,1551097800,39,43.76,2.0,66.2,9.17
los algarrobos,75,EC,1551096000,94,-3.25,-79.94,89.6,3.36
clyde river,40,CA,1551096720,74,70.47,-68.59,-23.81,13.87
port blair,20,IN,1551096000,69,11.67,92.75,82.4,3.36
dzilam gonzalez,0,MX,1551099902,91,21.28,-88.93,70.38,2.59
bilibino,24,RU,1551099902,38,68.06,166.44,-20.35,2.37
deputatskiy,64,RU,1551099903,55,69.3,139.9,-27.77,2.71
ouango,0,CD,1551099903,52,4.31,22.55,93.33,3.15
emerald,44,AU,1551096000,42,-23.53,148.16,80.6,9.17
show low,1,US,1551098100,84,34.25,-110.03,23.0,4.94
fare,80,PF,1551099904,96,-16.7,-151.02,83.7,6.62
shitanjing,48,CN,1551099904,72,39.23,106.34,26.68,2.59
gorontalo,12,ID,1551099904,95,0.54,123.06,73.71,1.92
hamilton,75,BM,1551099300,83,32.3,-64.78,71.6,27.51
jiddah,75,BM,1551099300,83,32.3,-64.78,71.6,27.51
lagoa,0,PT,1551097800,52,37.14,-8.45,64.4,18.34
puerto escondido,5,MX,1551094800,73,15.86,-97.07,73.4,7.63
jining,0,CN,1551099906,69,35.41,116.58,39.64,3.6
bengkulu,0,CN,1551099906,69,35.41,116.58,39.64,3.6
lulea,0,SE,1551099000,56,65.58,22.15,41.0,19.46
hithadhoo,88,MV,1551099907,100,-0.6,73.08,84.46,6.51
yanam,20,IN,1551097800,48,16.73,82.22,86.0,5.82
energeticheskiy,40,KZ,1551097800,55,43.43,77.02,35.6,6.71
hambantota,20,LK,1551096600,79,6.12,81.12,86.0,6.93
butte,90,US,1551098880,70,46.01,-112.54,-0.41,2.82
los llanos de aridane,0,ES,1551097800,60,28.66,-17.92,75.2,3.36
severo-kurilsk,56,RU,1551099908,100,50.68,156.12,21.42,10.65
abha,75,SA,1551096780,64,18.22,42.5,71.6,16.11
nantucket,90,US,1551098520,64,41.28,-70.1,37.4,31.09
buin,0,CL,1551099600,37,-33.73,-70.74,68.0,2.24
svetlogorsk,0,RU,1551097800,66,53.14,59.15,14.0,13.42
beringovskiy,92,RU,1551099910,89,63.05,179.32,29.97,24.74
nishihara,75,JP,1551097800,87,35.74,139.53,53.6,4.7
beyneu,44,KZ,1551099910,68,45.32,55.19,31.41,14.0
robore,40,BO,1551096000,83,-18.33,-59.76,77.0,9.17
plouzane,0,FR,1551097800,41,48.38,-4.62,62.6,5.82
sinjar,0,SY,1551099911,88,35.59,37.0,61.56,8.41
las tunas,75,CU,1551095400,94,20.96,-76.96,71.6,5.82
saint-joseph,0,FR,1551097800,51,43.56,6.97,69.8,6.93
milkovo,90,BG,1551097800,59,41.53,24.68,39.2,9.17
romny,48,UA,1551099913,93,50.74,33.49,35.01,13.56
pevek,48,RU,1551099913,82,69.7,170.27,-8.65,18.92
caetite,8,BR,1551099619,79,-14.07,-42.48,81.09,3.6
severnyy,8,BR,1551099619,79,-14.07,-42.48,81.09,3.6
olga,1,US,1551098820,66,34.11,-118.17,51.8,2.48
buala,20,SB,1551099914,92,-8.15,159.59,80.23,3.94
belyy yar,0,RU,1551097800,43,53.6,91.39,33.8,11.18
shenjiamen,88,CN,1551099846,97,29.96,122.3,48.24,9.75
lorengau,12,PG,1551099914,94,-2.02,147.27,83.7,8.75
ola,12,RU,1551099915,100,59.58,151.3,-0.73,11.21
noyabrsk,80,RU,1551099915,85,63.2,75.45,17.01,14.56
bairiki,80,RU,1551099915,85,63.2,75.45,17.01,14.56
khorinsk,0,RU,1551099915,80,52.16,109.78,18.18,2.37
russell,0,AR,1551099916,49,-33.01,-68.8,47.74,4.83
vero beach,75,US,1551098100,59,27.64,-80.4,69.8,18.48
thompson,5,CA,1551096000,73,55.74,-97.86,-32.81,5.5
mayumba,24,GA,1551099916,99,-3.44,10.65,82.53,8.75
chumikan,0,RU,1551099917,59,54.72,135.31,2.97,5.28
wanaka,48,NZ,1551099917,77,-44.7,169.14,37.26,1.36
lazaro cardenas,5,MX,1551094860,37,28.39,-105.62,35.6,4.7
kwinana,76,AU,1551097800,73,-32.25,115.77,78.8,5.82
daru,0,SL,1551099918,36,7.99,-10.85,92.34,6.62
ostrovnoy,88,RU,1551099918,94,68.05,39.51,34.02,18.25
inhambane,24,MZ,1551099918,83,-23.87,35.38,82.8,11.65
bakchar,32,RU,1551099918,74,57.02,82.07,15.03,8.86
shingu,64,JP,1551099919,90,33.72,135.99,60.12,12.1
wicklow,0,IE,1551097800,62,53.0,-6.42,57.2,4.7
alekseyevsk,8,RU,1551099920,61,57.84,108.35,30.42,10.2
uvat,80,RU,1551099920,78,59.14,68.9,20.97,7.18
semporna,75,MY,1551096000,83,4.48,118.61,80.6,4.7
nalut,92,LY,1551099921,99,31.86,10.98,46.71,14.56
dolzhanskaya,76,RU,1551099922,96,46.63,37.8,31.41,23.06
hervey bay,92,AU,1551096000,68,-25.3,152.85,71.6,8.05
daxian,92,AU,1551096000,68,-25.3,152.85,71.6,8.05
oytal,20,KZ,1551099923,60,42.91,73.27,47.83,3.15
bolungarvik,20,KZ,1551099923,60,42.91,73.27,47.83,3.15
qaanaaq,0,GL,1551099924,97,77.48,-69.36,-18.14,7.4
manokwari,100,ID,1551099924,100,-0.87,134.08,80.46,11.88
conde,0,BR,1551099924,72,-11.81,-37.61,87.12,7.96
lompoc,90,US,1551098400,93,34.64,-120.46,44.6,3.36
batemans bay,0,AU,1551099924,96,-35.71,150.18,64.48,6.4
sarahan,68,IN,1551099925,89,31.51,77.79,7.29,1.36
kita,75,JP,1551097800,87,35.76,139.74,53.6,4.7
naze,75,NG,1551096000,63,5.43,7.07,91.4,5.82
del rio,1,US,1551095880,52,29.36,-100.9,44.6,4.7
victoria,75,BN,1551097800,83,5.28,115.24,80.6,9.17
petit goave,0,HT,1551099926,98,18.43,-72.87,70.92,2.71
cap-aux-meules,92,CA,1551099926,88,47.38,-61.86,27.94,45.88
rocha,0,UY,1551099926,82,-34.48,-54.34,64.71,4.16
anaconda,90,US,1551098880,70,46.13,-112.94,-0.41,2.82
taguatinga,75,BR,1551099600,83,-15.83,-48.06,71.6,2.24
rafaela,100,AR,1551099800,99,-31.25,-61.49,65.43,8.19
la ronge,5,CA,1551096000,75,55.1,-105.3,-18.41,5.82
kathu,0,ZA,1551099930,17,-27.7,23.05,94.81,10.76
uvira,56,CD,1551099931,91,-3.41,29.14,72.76,2.59
calatayud,0,ES,1551097800,62,41.35,-1.64,59.0,9.17
omsukchan,68,RU,1551099931,67,62.53,155.8,-19.76,7.96
cepu,68,ID,1551099932,95,-7.14,111.59,75.19,2.93
sambava,92,MG,1551099932,100,-14.27,50.17,80.86,8.97
linxia,92,CN,1551099932,79,35.6,103.21,24.66,3.6
lagunillas,0,VE,1551099933,81,8.5,-71.39,47.83,1.81
ponta do sol,12,BR,1551099933,73,-20.63,-46.0,79.2,4.38
charyshskoye,88,RU,1551099933,83,51.4,83.56,22.81,3.6
skalistyy,88,RU,1551099933,83,51.4,83.56,22.81,3.6
bilma,32,NE,1551099934,25,18.69,12.92,75.19,12.55
hofn,20,IS,1551096000,81,64.25,-15.21,44.6,3.36
san mateo del mar,0,MX,1551099935,99,16.21,-94.98,75.46,31.9
atrauli,12,IN,1551099935,65,28.04,78.28,69.93,5.28
dois vizinhos,36,BR,1551099935,71,-25.75,-53.06,79.38,6.62
qandahar,36,BR,1551099935,71,-25.75,-53.06,79.38,6.62
neusiedl am see,0,AT,1551097800,37,47.95,16.84,55.4,8.05
sentyabrskiy,0,AT,1551097800,37,47.95,16.84,55.4,8.05
aflu,0,AT,1551097800,37,47.95,16.84,55.4,8.05
luba,0,PH,1551099936,82,17.32,120.7,69.21,2.26
wenatchee,90,US,1551095700,73,47.42,-120.31,24.8,6.93
olenegorsk,88,RU,1551099937,86,68.14,33.28,34.74,8.97
mackenzie,1,CA,1551096000,83,55.34,-123.09,-9.41,6.93
kuche,1,CA,1551096000,83,55.34,-123.09,-9.41,6.93
koani,0,TZ,1551099938,99,-6.13,39.28,85.18,14.45
klaksvik,48,FO,1551099000,100,62.23,-6.59,46.4,6.93
tura,24,IN,1551099938,64,25.52,90.21,67.99,2.71
one hundred mile house,24,IN,1551099938,64,25.52,90.21,67.99,2.71
shimoda,75,JP,1551096000,95,34.7,138.93,53.6,18.34
wukari,88,NG,1551099939,100,7.87,9.78,76.5,4.83
worcester,0,GB,1551097200,66,52.19,-2.22,57.2,6.62
grand centre,0,GB,1551097200,66,52.19,-2.22,57.2,6.62
ortigueira,0,ES,1551097800,46,43.68,-7.85,71.6,3.36
meulaboh,0,ID,1551099940,100,4.14,96.13,84.19,4.05
saleaula,0,ID,1551099940,100,4.14,96.13,84.19,4.05
antalaha,92,MG,1551099940,87,-14.9,50.28,82.17,7.07
lata,48,IN,1551099940,71,30.78,78.62,37.53,1.7
kapit,56,MY,1551099940,97,2.02,112.94,75.24,2.04
san carlos de bariloche,0,AR,1551096000,60,-41.13,-71.31,39.2,1.14
bedesa,48,ET,1551099941,33,8.9,40.78,80.46,4.61
banda aceh,20,ID,1551099941,67,5.56,95.32,83.88,5.73
brae,75,GB,1551097200,100,60.4,-1.35,50.0,5.82
marsa matruh,0,EG,1551096000,22,31.35,27.25,75.2,13.87
fevralsk,0,EG,1551096000,22,31.35,27.25,75.2,13.87
ayagoz,32,KZ,1551099942,87,47.96,80.43,18.27,5.5
tautira,40,PF,1551097800,78,-17.73,-149.15,78.8,4.7
zacualpan,75,MX,1551095520,100,21.25,-105.17,64.4,1.36
sinalunga,40,IT,1551095400,50,43.21,11.74,51.8,23.04
bambous virieux,40,MU,1551096000,66,-20.34,57.76,87.8,10.29
attawapiskat,40,MU,1551096000,66,-20.34,57.76,87.8,10.29
moramanga,76,MG,1551099943,89,-18.95,48.23,73.35,3.27
ketchikan,1,US,1551099180,42,55.34,-131.65,28.4,8.05
xingyi,76,CN,1551099944,42,24.19,102.82,65.52,9.75
faya,75,SA,1551096780,64,18.39,42.45,71.6,16.11
ulaanbaatar,0,MN,1551099600,55,47.92,106.92,10.4,2.24
erenhot,56,CN,1551099944,66,43.65,111.97,21.19,3.04
broome,0,GB,1551097200,38,52.47,1.45,60.8,4.7
labutta,0,GB,1551097200,38,52.47,1.45,60.8,4.7
charagua,20,BO,1551096000,83,-19.79,-63.2,71.6,13.22
pacific grove,20,US,1551098100,93,36.62,-121.92,46.4,5.82
barentsburg,20,US,1551098100,93,36.62,-121.92,46.4,5.82
anadyr,75,RU,1551096000,92,64.73,177.51,26.6,24.61
kawana waters,75,RU,1551096000,92,64.73,177.51,26.6,24.61
kurumkan,8,RU,1551099946,91,54.33,110.32,12.64,1.81
touros,75,BR,1551099600,70,-5.2,-35.46,87.8,9.17
veraval,0,FR,1551097800,76,49.65,0.71,60.8,4.7
reading,1,US,1551098160,40,40.34,-75.93,33.8,24.16
orlik,0,RU,1551099947,67,52.51,99.83,2.34,1.92
novobiryusinskiy,36,RU,1551099948,70,56.96,97.71,24.61,7.74
inirida,32,CO,1551099948,89,3.87,-67.92,75.91,2.37
dinguiraye,0,GN,1551099948,19,11.29,-10.71,89.73,6.06
ulundi,56,ZA,1551099949,57,-28.29,31.43,81.45,5.06
nago,0,IT,1551097200,72,45.88,10.89,55.4,5.82
komsomolskoye,32,UA,1551099949,86,45.02,34.02,33.34,8.52
ninghai,48,CN,1551096000,75,29.29,121.42,46.4,2.24
santa isabel,75,CO,1551096000,100,4.71,-75.1,69.8,3.36
kabanjahe,40,ID,1551096000,83,3.1,98.49,82.4,5.82
arlit,76,NE,1551099950,55,18.74,7.39,76.59,4.38
eyl,0,SO,1551099951,76,7.98,49.82,82.89,15.01
novhorodka,0,UA,1551097800,55,48.37,32.66,39.2,17.9
bokspits,0,UA,1551097800,55,48.37,32.66,39.2,17.9
san juan,75,PR,1551099180,73,18.47,-66.12,78.8,5.82
bitung,20,ID,1551097800,88,1.44,125.19,75.2,11.65
turayf,0,SA,1551096000,28,31.68,38.65,68.0,9.17
formoso do araguaia,0,SA,1551096000,28,31.68,38.65,68.0,9.17
kosh-agach,8,RU,1551099953,73,49.99,88.66,7.29,2.15
sao joao da barra,0,BR,1551096000,62,-21.64,-41.05,89.6,2.24
haines junction,8,CA,1551099954,50,60.75,-137.51,-14.32,1.59
luderitz,0,NA,1551099954,67,-26.65,15.16,76.99,8.97
buraydah,0,SA,1551096000,38,26.33,43.97,75.2,9.17
tabas,80,IR,1551096000,17,33.6,56.92,64.4,2.24
viedma,12,AR,1551099955,51,-40.81,-62.99,56.38,16.8
karasjok,40,NO,1551097200,69,69.47,25.52,33.8,44.96
filadelfia,64,PY,1551099730,53,-22.35,-60.04,88.38,19.26
tumannyy,64,PY,1551099730,53,-22.35,-60.04,88.38,19.26
abiy adi,64,PY,1551099730,53,-22.35,-60.04,88.38,19.26
caravelas,0,BR,1551099956,99,-17.73,-39.27,83.83,12.33
phonhong,40,LA,1551097800,62,18.5,102.42,84.2,2.24
khandyga,8,RU,1551099957,62,62.65,135.58,-28.99,2.71
archidona,75,EC,1551096000,100,-0.91,-77.81,71.6,2.24
komsomolskiy,92,RU,1551099957,88,67.55,63.78,21.73,19.82
tamiahua,92,MX,1551099958,100,21.28,-97.45,68.44,8.08
trebur,0,DE,1551097200,24,49.93,8.41,57.2,6.93
maykain,0,DE,1551097200,24,49.93,8.41,57.2,6.93
monrovia,75,LR,1551096000,62,6.33,-10.8,89.6,4.7
zhigansk,20,RU,1551099707,60,66.77,123.37,-15.71,9.42
montevideo,90,US,1551098640,63,44.94,-95.72,-2.21,6.93
tukrah,90,US,1551098640,63,44.94,-95.72,-2.21,6.93
laguna,5,MX,1551099120,93,27.52,-110.01,41.0,4.7
margate,75,AU,1551097800,88,-43.03,147.26,62.6,13.87
chapayevka,0,RU,1551096000,65,53.06,158.83,3.2,6.71
vetluzhskiy,88,RU,1551099960,86,58.39,45.47,30.51,6.06
tulun,20,RU,1551099960,86,54.56,100.58,20.43,2.48
katsuura,75,JP,1551096000,66,33.93,134.5,51.8,8.05
nuuk,90,GL,1551095400,92,64.17,-51.74,19.4,8.05
surt,12,LY,1551099961,100,31.21,16.59,56.74,10.98
zambezi,24,ZM,1551099962,42,-13.55,23.12,90.76,8.19
trapani,40,IT,1551097200,54,38.02,12.54,53.6,14.99
lowicz,0,PL,1551097800,70,52.11,19.95,46.4,11.41
yantongshan,0,CN,1551099963,46,43.28,126.02,23.44,6.73
sao filipe,0,CV,1551099963,79,14.9,-24.5,75.24,18.25
kalach-na-donu,75,RU,1551097800,86,48.69,43.52,30.2,24.61
sorvag,75,RU,1551097800,86,48.69,43.52,30.2,24.61
batagay,32,RU,1551099964,6,67.65,134.64,-31.78,2.93
atar,0,MR,1551096000,23,20.52,-13.05,82.4,24.16
graaff-reinet,8,ZA,1551099949,29,-32.25,24.53,89.19,8.52
ende,24,ID,1551099965,100,-8.84,121.65,81.36,1.7
phrai bung,24,ID,1551099965,100,-8.84,121.65,81.36,1.7
hualmay,68,PE,1551099965,80,-11.1,-77.61,71.1,2.48
srednekolymsk,44,RU,1551099966,39,67.46,153.71,-20.17,3.04
innisfail,5,CA,1551096000,74,52.02,-113.95,-23.81,3.36
yumen,0,CN,1551099966,54,40.29,97.04,23.71,6.62
north bend,90,US,1551097980,93,43.41,-124.22,37.4,9.17
charlestown,75,US,1551099060,47,41.38,-71.64,39.2,19.46
varnamo,0,SE,1551099000,75,57.19,14.04,46.4,10.29
cumpas,0,MX,1551099967,69,30.0,-109.78,30.51,1.92
zhanaozen,32,KZ,1551099968,40,43.35,52.85,39.33,11.65
road town,40,VG,1551099600,74,18.42,-64.62,78.8,8.05
saldanha,0,PT,1551099968,51,41.42,-6.55,63.54,3.71
lithakia,20,GR,1551097200,35,37.72,20.83,57.2,4.7
campiglia marittima,5,IT,1551095700,66,43.06,10.62,59.0,9.17
usinsk,92,RU,1551099969,93,66.0,57.56,28.48,13.44
salta,75,AR,1551096000,88,-24.79,-65.41,71.6,3.36
namatanai,64,PG,1551099970,98,-3.66,152.44,82.84,2.26
asayita,64,PG,1551099970,98,-3.66,152.44,82.84,2.26
deshna,64,PG,1551099970,98,-3.66,152.44,82.84,2.26
pella,1,US,1551099300,70,41.41,-92.92,3.2,8.05
narsaq,75,GL,1551095400,43,60.91,-46.05,35.6,6.93
hukuntsi,36,BW,1551099971,15,-23.98,21.76,95.98,7.96
balimo,36,BW,1551099971,15,-23.98,21.76,95.98,7.96
tabou,48,CI,1551099972,95,4.42,-7.36,84.01,11.54
laredo,75,US,1551098100,50,27.51,-99.51,53.6,8.19
waingapu,88,ID,1551099972,97,-9.65,120.26,76.09,2.37
lugovskiy,88,ID,1551099972,97,-9.65,120.26,76.09,2.37
alunitdag,88,ID,1551099972,97,-9.65,120.26,76.09,2.37
marrakesh,0,MA,1551097800,17,31.63,-7.99,80.6,2.24
gold coast,90,AU,1551097800,82,-28.0,153.41,68.0,17.22
coquimbo,75,CL,1551096000,93,-29.95,-71.34,59.0,1.92
umm durman,75,CL,1551096000,93,-29.95,-71.34,59.0,1.92
dokka,12,NO,1551099974,72,60.83,10.07,35.55,1.92
zhicheng,88,CN,1551099974,59,35.04,112.59,44.19,5.73
koygorodok,92,RU,1551099974,83,60.44,51.01,25.83,6.96
ovruch,0,UA,1551099975,50,51.33,28.8,46.62,17.81
guangyuan,92,CN,1551099711,96,32.43,105.86,43.65,2.15
menongue,20,AO,1551099975,28,-14.66,17.68,88.65,6.51
samalaeulu,20,AO,1551099975,28,-14.66,17.68,88.65,6.51
tianpeng,48,CN,1551099976,83,28.88,112.34,48.64,3.6
letcani,0,RO,1551097800,52,47.18,27.42,44.6,11.41
novovarshavka,48,RU,1551099976,78,54.17,74.7,9.63,10.76
ishigaki,92,JP,1551099977,100,24.34,124.16,70.92,19.93
livingston,1,US,1551099300,100,32.58,-88.19,33.8,5.39
trelew,36,AR,1551099678,39,-43.25,-65.31,46.66,13.89
chernyshevskiy,76,RU,1551099977,83,63.01,112.47,20.11,9.98
chino valley,1,US,1551098100,66,34.76,-112.45,32.0,11.41
dingle,0,PH,1551099978,57,11.0,122.67,77.89,10.98
algiers,1,US,1551098100,50,29.94,-90.04,55.4,11.41
kyshtovka,80,RU,1551099979,85,56.56,76.62,11.97,12.21
vostok,76,RU,1551099979,66,46.45,135.83,18.63,3.83
mudon,0,MM,1551099979,55,16.26,97.73,81.9,5.28
sur,56,OM,1551099980,82,22.57,59.53,76.41,14.45
vetralla,0,IT,1551097200,60,42.32,12.06,59.0,19.82
valparaiso,1,US,1551098100,66,41.47,-87.06,14.0,10.29
linjiang,0,CN,1551099981,70,41.81,126.91,7.47,3.83
waipawa,80,NZ,1551099981,87,-39.94,176.59,51.39,5.06
kaeo,0,NZ,1551099981,72,-35.1,173.78,57.28,9.08
verkhnevilyuysk,24,RU,1551099982,68,63.45,120.31,-0.46,8.19
morant bay,20,JM,1551096000,69,17.88,-76.41,73.4,6.93
sturgis,76,US,1551098160,76,44.41,-103.51,-2.21,8.05
leningradskiy,0,RU,1551099983,68,69.38,178.42,3.91,18.81
gafanha da encarnacao,0,PT,1551097800,37,40.62,-8.73,71.6,8.05
chegdomyn,20,RU,1551099983,51,51.13,133.04,4.32,4.16
paita,40,PE,1551096000,290,-5.09,-81.11,62.6,11.41
vao,0,EE,1551099984,75,59.1,26.19,38.16,13.67
kieta,92,PG,1551099984,100,-6.22,155.63,76.77,3.83
constitucion,32,MX,1551099984,61,23.99,-104.67,41.08,5.39
ozernovskiy,68,RU,1551099985,87,51.5,156.52,18.09,8.97
fairbanks,75,US,1551099180,77,64.84,-147.72,-2.21,4.72
fort-shevchenko,56,KZ,1551099985,100,44.51,50.26,31.05,12.33
bonavista,0,CA,1551099986,90,48.65,-53.11,12.69,15.68
watertown,90,US,1551098340,76,44.9,-97.12,-4.01,4.7
krasnoselkup,90,US,1551098340,76,44.9,-97.12,-4.01,4.7
havoysund,75,NO,1551097200,80,71.0,24.66,30.2,21.92
hobyo,0,SO,1551099987,63,5.35,48.53,84.15,16.8
koslan,80,RU,1551099987,84,63.46,48.9,28.89,5.73
monastyrshchina,88,RU,1551099987,87,54.35,31.84,36.36,20.27
berlevag,75,NO,1551095400,63,70.86,29.09,30.2,20.8
baykit,56,RU,1551099988,70,61.68,96.39,15.03,9.64
dawlatabad,0,AF,1551099988,34,36.41,64.91,56.83,8.97
bereda,0,ES,1551097800,46,43.27,-7.54,71.6,3.36
fortuna,0,ES,1551097800,42,38.18,-1.13,62.6,6.93
westport,75,IE,1551097800,76,53.8,-9.52,53.6,13.87
arenapolis,76,BR,1551099990,86,-14.45,-56.85,78.12,4.05
kracheh,76,BR,1551099990,86,-14.45,-56.85,78.12,4.05
sataua,76,BR,1551099990,86,-14.45,-56.85,78.12,4.05
cerritos,1,US,1551098820,66,33.86,-118.05,53.6,7.85
rovaniemi,40,FI,1551099000,60,66.5,25.72,42.8,12.75
gravelbourg,0,CA,1551099994,6,49.88,-106.56,-33.13,4.94
alihe,0,CN,1551099995,55,50.57,123.73,13.59,5.61
zinder,0,NE,1551096000,10,13.81,8.99,89.6,9.17
varna,0,BG,1551097800,44,43.22,27.9,41.0,16.11
dickinson,90,US,1551095760,69,46.88,-102.79,-9.41,5.82
doka,0,SD,1551099996,21,13.52,35.76,103.5,6.29
khandbari,88,NP,1551099996,73,27.38,87.21,27.31,0.81
sampit,56,ID,1551099997,95,-2.54,112.95,75.87,7.96
siderno,75,IT,1551095700,58,38.28,16.3,55.4,8.05
krasnyy chikoy,0,RU,1551099997,70,50.36,108.75,15.88,2.26
mildura,24,AU,1551096000,25,-34.18,142.16,77.0,5.82
macaboboni,24,AU,1551096000,25,-34.18,142.16,77.0,5.82
ust-kamchatsk,24,AU,1551096000,25,-34.18,142.16,77.0,5.82
kalyazin,92,RU,1551099998,94,57.24,37.84,35.14,13.89
umzimvubu,92,RU,1551099998,94,57.24,37.84,35.14,13.89
la gaulette,92,RU,1551099998,94,57.24,37.84,35.14,13.89
grand gaube,40,MU,1551096000,66,-20.01,57.66,87.8,10.29
nikki,0,BJ,1551099999,37,9.94,3.21,94.95,4.72
kang,0,BW,1551100000,20,-23.67,22.79,97.92,4.38
padang,8,ID,1551100000,100,-0.92,100.36,84.28,4.83
dalvik,0,SE,1551099000,73,57.79,14.13,46.4,6.93
astana,0,KZ,1551097800,92,51.13,71.43,5.0,11.18
clemencia,0,CO,1551096000,83,10.57,-75.33,77.0,3.36
petrokhorion,90,GR,1551097200,55,41.12,24.83,39.2,2.48
geilo,24,NO,1551100001,70,60.53,8.21,41.85,4.94
quelimane,75,MZ,1551096000,59,-17.88,36.89,91.4,4.7
newport,0,GB,1551097200,50,51.59,-3.0,57.2,6.93
elko,90,US,1551095760,80,40.83,-115.76,35.6,7.96
morehead,1,US,1551098400,50,38.18,-83.43,28.4,10.29
smidovich,32,RU,1551100003,45,48.6,133.81,22.32,6.51
sanary-sur-mer,0,FR,1551097800,41,43.12,5.8,69.8,10.29
karachi,20,PK,1551097500,50,24.87,67.03,77.0,12.75
kampot,20,KH,1551097800,69,10.62,104.18,82.4,4.7
bandarbeyla,0,SO,1551100004,99,9.49,50.81,79.11,8.97
goderich,76,CA,1551100004,70,43.74,-81.71,19.93,30.89
pointe michel,40,DM,1551096000,57,15.25,-61.38,78.8,4.7
rancho palos verdes,1,US,1551098820,66,33.75,-118.37,50.0,7.85
romanovskaya,36,RU,1551100005,92,47.54,42.02,29.38,15.23
moree,40,AU,1551096000,39,-29.46,149.84,78.8,20.8
kalang,90,AU,1551097800,88,-30.51,152.69,66.2,3.36
novoagansk,88,RU,1551100006,76,61.94,76.66,18.09,8.08
tazovskiy,76,RU,1551100006,78,67.47,78.7,3.64,12.66
male,48,UA,1551100007,93,50.74,33.7,35.01,13.56
lokot,20,RU,1551100007,92,52.57,34.57,37.08,14.9
sibolga,56,ID,1551100007,92,1.74,98.78,74.56,1.25
tanjong tokong,56,ID,1551100007,92,1.74,98.78,74.56,1.25
log,40,IT,1551097800,40,45.62,13.84,57.2,6.93
petropavlovsk-kamchatskiy,0,RU,1551096000,65,53.05,158.65,3.2,6.71
loreto,12,PY,1551100008,57,-23.27,-57.32,87.93,18.48
jiaozuo,44,CN,1551100008,65,35.21,113.25,36.04,3.15
bulaevo,44,KZ,1551100009,86,54.91,70.44,13.5,12.66
geraldton,20,CA,1551096540,63,49.72,-86.95,-11.21,18.34
avera,1,US,1551098100,59,33.19,-82.53,37.4,8.05
clonakilty,75,IE,1551097800,81,51.62,-8.87,51.8,16.11
raudeberg,75,NO,1551097200,93,61.99,5.14,42.8,9.17
garowe,0,SO,1551100010,35,8.41,48.48,89.64,12.44
harper,1,US,1551098100,64,30.3,-99.24,39.2,3.36
ust-nera,0,RU,1551100011,14,64.57,143.24,-48.88,1.7
syedove,76,UA,1551100011,94,47.08,38.16,31.09,21.61
tocache,88,PE,1551100012,95,-8.19,-76.51,60.12,2.15
guerrero negro,36,MX,1551100012,96,27.97,-114.04,42.3,6.73
toungoo,36,MX,1551100012,96,27.97,-114.04,42.3,6.73
pauini,92,BR,1551100012,99,-7.71,-67.0,73.84,3.15
khonuu,92,BR,1551100012,99,-7.71,-67.0,73.84,3.15
neryungri,0,RU,1551100013,68,56.66,124.71,-2.53,3.94
campo grande,0,BR,1551096000,74,-20.46,-54.62,80.6,12.75
kimbe,76,PG,1551100014,100,-5.56,150.15,78.39,4.72
san jose,32,PH,1551100015,78,15.79,120.99,72.31,2.71
loanda,0,BR,1551100015,83,-22.93,-53.14,81.99,6.73
santa isabel do rio negro,64,BR,1551100015,85,-0.41,-65.02,79.92,1.48
corner brook,90,CA,1551096000,60,48.95,-57.95,15.8,12.75
ranong,0,TH,1551096000,62,9.96,98.62,84.2,9.17
flinders,0,AU,1551096000,82,-34.58,150.85,59.0,5.73
cobija,40,BR,1551096000,88,-11.02,-68.77,77.0,3.36
tucuru,92,GT,1551100017,95,15.3,-90.07,64.44,1.92
ouagadougou,0,BF,1551096000,5,12.37,-1.53,91.4,8.05
pueblo nuevo,0,MX,1551100018,86,23.99,-106.96,52.78,1.7
ati,0,TD,1551100018,20,13.21,18.34,97.65,8.3
kingori,75,TZ,1551096000,34,-3.38,37.02,93.2,11.41
kadykchan,75,TZ,1551096000,34,-3.38,37.02,93.2,11.41
lebedinyy,8,RU,1551100019,70,58.52,125.52,5.13,3.38
deyang,92,CN,1551100019,86,31.12,104.39,47.97,2.71
haapiti,40,PF,1551097800,78,-17.57,-149.87,78.8,4.7
yanchukan,40,PF,1551097800,78,-17.57,-149.87,78.8,4.7
bac lieu,40,PF,1551097800,78,-17.57,-149.87,78.8,4.7
havre-saint-pierre,75,CA,1551096000,85,50.23,-63.6,14.0,25.28
tondon,0,GN,1551100021,25,10.37,-13.36,93.6,3.94
marystown,92,CA,1551100021,99,47.17,-55.16,25.33,26.87
college,75,US,1551099180,77,64.86,-147.8,17.6,4.72
ramsgate,0,AU,1551097800,60,-33.98,151.14,69.8,4.7
yeletskiy,0,AU,1551097800,60,-33.98,151.14,69.8,4.7
ambatofinandrahana,76,MG,1551100022,100,-20.55,46.8,69.03,3.04
calabozo,0,VE,1551100022,70,8.92,-67.43,75.64,11.21
